City_ID,City,Lat,Lng,Max Temp,Humidity,Cloudiness,Wind Speed,Country,Date
0,puerto natales,-51.7236,-72.4875,55.85,54,75,20.71,CL,2025-03-09 12:41:40
1,porto velho,-8.7619,-63.9039,78.85,89,40,2.3,BR,2025-03-09 12:40:45
2,olonkinbyen,70.9221,-8.7187,20.37,66,100,6.85,SJ,2025-03-09 12:41:42
3,albany,42.6001,-73.9662,28.4,65,16,3.0,US,2025-03-09 12:41:43
4,kodiak,57.79,-152.4072,35.11,93,100,19.57,US,2025-03-09 12:41:44
5,talnakh,69.4865,88.3972,-23.4,82,17,2.04,RU,2025-03-09 12:41:45
6,vilyuchinsk,52.9306,158.4028,10.67,73,0,11.79,RU,2025-03-09 12:41:47
7,qusmuryn,52.4503,64.6311,14.2,92,80,9.19,KZ,2025-03-09 12:41:48
8,sitka,57.0531,-135.33,42.69,70,100,10.36,US,2025-03-09 12:41:49
9,uvira,-3.4067,29.1458,82.69,77,85,3.29,CD,2025-03-09 12:41:50
10,port-aux-francais,-49.35,70.2167,41.81,89,100,31.65,TF,2025-03-09 12:41:51
11,waitangi,-43.9535,-176.5597,56.61,66,0,4.45,NZ,2025-03-09 12:38:18
12,polyarnyy,69.1989,33.4478,27.68,79,67,3.4,RU,2025-03-09 12:41:53
13,tamale,9.4008,-0.8393,100.85,26,14,3.44,GH,2025-03-09 12:41:56
14,flen,59.0583,16.5878,54.07,53,22,7.58,SE,2025-03-09 12:41:57
15,grytviken,-54.2811,-36.5092,31.86,91,98,17.56,GS,2025-03-09 12:41:58
16,klyuchi,52.2667,79.1667,17.46,93,100,14.85,RU,2025-03-09 12:41:59
17,port saint john's,-31.6229,29.5448,94.68,41,0,6.15,ZA,2025-03-09 12:42:00
18,bethel,41.3712,-73.414,30.94,62,0,3.44,US,2025-03-09 12:42:01
19,petropavlovsk-kamchatsky,53.0452,158.6483,9.19,40,0,15.66,RU,2025-03-09 12:42:02
20,enewetak,11.3474,162.3373,79.97,80,61,24.2,MH,2025-03-09 12:42:03
21,dudinka,69.4058,86.1778,-30.8,97,30,3.49,RU,2025-03-09 12:38:44
22,chonchi,-42.6128,-73.8092,48.11,43,95,0.74,CL,2025-03-09 12:42:06
23,lompoc,34.6391,-120.4579,41.13,89,0,9.22,US,2025-03-09 12:42:07
24,adamstown,-25.066,-130.1015,76.89,67,100,21.47,PN,2025-03-09 12:42:08
25,rosa zarate,0.3333,-79.4667,73.65,97,100,2.33,EC,2025-03-09 12:42:09
26,urengoy,65.9667,78.3667,-10.97,91,5,8.52,RU,2025-03-09 12:42:10
27,gadzhiyevo,69.2551,33.3362,26.47,82,65,3.65,RU,2025-03-09 12:42:11
28,okha,53.5739,142.9478,-2.83,100,73,6.67,RU,2025-03-09 12:39:28
29,guayaramerin,-10.8368,-65.3614,75.25,94,75,3.44,BO,2025-03-09 12:42:13
30,iskateley,67.6803,53.1512,10.54,92,15,7.92,RU,2025-03-09 12:42:14
31,geraldton,-28.7667,114.6,72.01,64,0,21.85,AU,2025-03-09 12:39:56
32,margaret river,-33.95,115.0667,60.28,69,65,11.3,AU,2025-03-09 12:42:17
33,balqash,46.8481,74.995,27.19,86,0,24.61,KZ,2025-03-09 12:42:18
34,charlestown,-32.95,151.6667,73.72,87,100,3.0,AU,2025-03-09 12:42:19
35,hecun,36.5333,114.1111,53.28,52,6,10.4,CN,2025-03-09 12:42:20
36,isafjordur,66.0755,-23.124,39.24,60,100,10.36,IS,2025-03-09 12:42:21
37,kasimov,54.9411,41.3953,48.78,47,98,10.96,RU,2025-03-09 12:42:22
38,mussoorie,30.45,78.0833,51.46,32,0,2.3,IN,2025-03-09 12:42:23
39,touros,-5.1989,-35.4608,83.1,69,94,13.22,BR,2025-03-09 12:42:24
40,vernon,50.2581,-119.2691,38.73,75,100,3.44,CA,2025-03-09 12:38:11
41,viedma,-40.8135,-62.9967,61.95,36,0,9.55,AR,2025-03-09 12:42:28
42,utrik,11.2278,169.8474,80.1,75,6,25.14,MH,2025-03-09 12:42:29
43,qamdo,31.1667,97.2333,27.07,50,1,5.46,CN,2025-03-09 12:42:30
44,magdagachi,53.45,125.8,17.6,94,100,10.51,RU,2025-03-09 12:42:32
45,coronel dorrego,-38.7187,-61.2873,61.92,51,0,7.81,AR,2025-03-09 12:42:36
46,hermanus,-34.4187,19.2345,72.81,56,1,14.27,ZA,2025-03-09 12:42:37
47,tolanaro,-25.0319,46.9987,86.07,79,40,21.85,MG,2025-03-09 12:42:38
48,ristiina,61.5058,27.2464,41.11,75,100,4.9,FI,2025-03-09 12:42:39
49,chifeng,42.2683,118.9636,46.02,43,0,17.36,CN,2025-03-09 12:42:40
50,tuburan,6.6439,122.2736,76.96,83,98,4.7,PH,2025-03-09 12:42:41
51,fort mcmurray,56.7268,-111.381,-8.01,70,100,9.22,CA,2025-03-09 12:42:42
52,manicore,-5.8092,-61.3003,74.66,93,100,1.92,BR,2025-03-09 12:42:43
53,vorgashor,67.5833,63.95,-7.19,92,44,4.45,RU,2025-03-09 12:42:44
54,yuzhno-kurilsk,44.0306,145.8556,26.35,88,18,13.38,RU,2025-03-09 12:42:46
55,udachny,66.4167,112.4,-28.35,100,26,2.13,RU,2025-03-09 12:42:48
56,usogorsk,63.4106,48.6872,25.52,93,100,7.85,RU,2025-03-09 12:42:49
57,college,64.8569,-147.8028,21.15,63,100,11.5,US,2025-03-09 12:42:50
58,brisas de zicatela,15.8369,-97.0419,79.32,89,0,2.3,MX,2025-03-09 12:42:51
59,west salem,43.8991,-91.0813,34.75,84,0,8.05,US,2025-03-09 12:42:52
60,sarandi del yi,-33.35,-55.6333,66.74,50,0,16.78,UY,2025-03-09 12:42:53
61,wailua homesteads,22.0669,-159.378,70.59,93,75,21.85,US,2025-03-09 12:42:54
62,atafu village,-8.5421,-172.5159,81.41,75,100,6.71,TK,2025-03-09 12:42:55
63,juegang,32.3174,121.1855,45.73,90,100,9.33,CN,2025-03-09 12:42:57
64,floro,61.5996,5.0328,42.76,100,75,11.5,NO,2025-03-09 12:42:58
65,baranchinskiy,58.1617,59.6991,22.08,96,100,9.55,RU,2025-03-09 12:42:59
66,lerwick,60.1545,-1.1494,45.21,95,100,16.46,GB,2025-03-09 12:43:00
67,flying fish cove,-10.4217,105.6791,80.28,94,100,5.75,CX,2025-03-09 12:43:01
68,edinburgh of the seven seas,-37.0676,-12.3116,63.18,74,0,18.23,SH,2025-03-09 12:43:02
69,kapuskasing,49.4169,-82.4331,15.89,86,100,5.75,CA,2025-03-09 12:43:03
70,kununurra,-15.7667,128.7333,87.78,58,44,6.91,AU,2025-03-09 12:43:05
71,vadso,70.0744,29.7487,28.56,80,0,11.5,NO,2025-03-09 12:43:06
72,hithadhoo,-0.6,73.0833,83.01,70,39,14.32,MV,2025-03-09 12:43:08
73,port elizabeth,-33.918,25.5701,73.69,91,0,16.11,ZA,2025-03-09 12:39:21
74,al buraymi,24.2509,55.7931,92.62,16,0,6.91,OM,2025-03-09 12:43:11
75,lebu,-37.6167,-73.65,57.0,58,10,20.67,CL,2025-03-09 12:43:12
76,nova sintra,14.8667,-24.7167,70.29,74,0,16.24,CV,2025-03-09 12:43:13
77,tsiombe,-25.3,45.4833,86.45,68,10,15.37,MG,2025-03-09 12:43:14
78,longyearbyen,78.2186,15.6401,13.84,85,75,4.61,SJ,2025-03-09 12:38:34
79,hastings,50.8552,0.5729,56.17,77,61,7.76,GB,2025-03-09 12:38:15
80,opuwo,-18.0607,13.84,72.48,68,100,1.12,NA,2025-03-09 12:40:07
81,lundazi,-12.2929,33.1782,79.41,62,100,5.39,ZM,2025-03-09 12:43:19
82,kumylzhenskaya,49.8809,42.5898,49.39,43,10,8.08,RU,2025-03-09 12:43:21
83,suntar,62.1444,117.6319,-32.53,100,52,2.17,RU,2025-03-09 12:43:22
84,punta arenas,-53.15,-70.9167,44.71,81,0,6.91,CL,2025-03-09 12:41:25
85,whitehorse,60.7161,-135.0538,12.97,92,75,2.3,CA,2025-03-09 12:43:24
86,bath,51.3779,-2.3591,61.52,66,90,11.39,GB,2025-03-09 12:34:18
87,oppdal,62.5943,9.6912,33.46,96,100,6.33,NO,2025-03-09 12:43:26
88,san patricio,28.017,-97.5169,53.55,52,100,15.75,US,2025-03-09 12:43:28
89,bryanka,48.511,38.6722,53.67,34,46,4.97,UA,2025-03-09 12:43:29
90,wewak,-3.5534,143.6268,81.01,82,100,6.8,PG,2025-03-09 12:43:30
91,blackmans bay,-43.0167,147.3167,65.52,89,100,1.01,AU,2025-03-09 12:43:31
92,praia da vitoria,38.7333,-27.0667,57.45,82,40,18.9,PT,2025-03-09 12:43:34
93,maiduguri,11.8464,13.1603,103.08,8,5,13.33,NG,2025-03-09 12:43:35
94,fisterra,42.9049,-9.2629,55.18,71,88,30.15,ES,2025-03-09 12:43:36
95,uturoa,-16.7333,-151.4333,82.51,77,100,13.49,PF,2025-03-09 12:43:37
96,san antonio de pale,-1.4014,5.6325,82.87,79,47,11.25,GQ,2025-03-09 12:43:38
97,al burayqah,30.4062,19.5739,67.84,60,0,8.9,LY,2025-03-09 12:43:39
98,tromso,69.6496,18.957,32.02,86,75,3.44,NO,2025-03-09 12:43:40
99,hawaiian paradise park,19.5933,-154.9731,66.9,98,100,6.91,US,2025-03-09 12:43:41
100,ribeira grande,38.5167,-28.7,59.4,77,75,12.66,PT,2025-03-09 12:43:43
101,valdepenas,38.7621,-3.3848,49.05,65,100,16.98,ES,2025-03-09 12:43:44
102,nzerekore,7.7562,-8.8179,91.51,44,100,3.4,GN,2025-03-09 12:43:45
103,esperanza,19.5847,-70.9849,71.29,91,0,5.12,DO,2025-03-09 12:43:46
104,vila franca do campo,37.7167,-25.4333,57.61,75,67,16.49,PT,2025-03-09 12:43:47
105,mazagao,-0.115,-51.2894,81.5,78,76,4.23,BR,2025-03-09 12:43:48
106,bredasdorp,-34.5322,20.0403,78.21,45,1,20.42,ZA,2025-03-09 12:43:49
107,bardai,11.65,7.2333,100.35,7,37,15.66,NG,2025-03-09 12:43:50
108,ust-nera,64.5667,143.2,-28.82,98,65,1.32,RU,2025-03-09 12:43:51
109,hasaki,35.7333,140.8333,48.88,55,9,16.24,JP,2025-03-09 12:39:03
110,kavala,40.9397,24.4019,59.56,70,0,12.66,GR,2025-03-09 12:43:54
111,west island,-12.1568,96.8225,84.18,89,20,8.05,CC,2025-03-09 12:43:55
112,ancud,-41.8697,-73.8203,50.49,66,100,4.65,CL,2025-03-09 12:41:21
113,cafayate,-26.073,-65.9761,61.48,91,100,6.2,AR,2025-03-09 12:43:57
114,laguna,38.421,-121.4238,44.96,86,0,0.0,US,2025-03-09 12:43:48
115,tiksi,71.6872,128.8694,-17.27,97,97,9.1,RU,2025-03-09 12:43:59
116,natore,24.4165,88.9826,80.04,24,0,6.96,BD,2025-03-09 12:44:00
117,ilulissat,69.2167,-51.1,37.42,65,100,23.02,GL,2025-03-09 12:44:01
118,tomatlan,19.9333,-105.25,61.16,48,0,1.92,MX,2025-03-09 12:44:02
119,stanley,54.868,-1.6985,53.51,93,40,3.44,GB,2025-03-09 12:44:03
120,marsh harbour,26.5412,-77.0636,71.22,71,0,7.36,BS,2025-03-09 12:44:05
121,ban nam yuen,9.8769,98.8659,76.5,93,96,4.74,TH,2025-03-09 12:44:06
122,brooks,50.5834,-111.8851,40.98,56,100,6.91,CA,2025-03-09 12:44:07
123,bokhan,53.153,103.7714,11.59,97,11,0.72,RU,2025-03-09 12:44:08
124,georgetown,5.4112,100.3354,87.73,66,20,3.44,MY,2025-03-09 12:44:09
125,chaoyang,41.5703,120.4586,43.68,59,0,8.16,CN,2025-03-09 12:44:10
126,undurkhaan,47.3194,110.6556,34.83,25,56,24.18,MN,2025-03-09 12:44:11
127,guerrero negro,27.9769,-114.0611,51.58,71,0,4.03,MX,2025-03-09 12:44:12
128,invercargill,-46.4,168.35,49.75,93,98,4.54,NZ,2025-03-09 12:44:13
129,avarua,-21.2078,-159.775,78.85,89,20,5.75,CK,2025-03-09 12:44:15
130,wuyang,31.9925,116.2472,52.79,70,100,6.15,CN,2025-03-09 12:44:16
131,dryden,49.7833,-92.7503,30.49,86,40,9.22,CA,2025-03-09 12:44:17
132,guarapari,-20.6667,-40.4975,84.7,56,0,10.13,BR,2025-03-09 12:44:18
133,tela,15.7833,-87.45,71.55,94,0,0.0,HN,2025-03-09 12:44:19
134,bilibino,68.0546,166.4372,-18.49,94,100,4.72,RU,2025-03-09 12:44:21
135,tenango de arista,19.1017,-99.5931,38.86,42,0,4.88,MX,2025-03-09 12:44:22
136,nar'yan-mar,67.6713,53.087,10.81,92,14,8.05,RU,2025-03-09 12:44:23
137,mayna,54.1135,47.6231,37.49,86,98,17.47,RU,2025-03-09 12:44:24
138,tidjikja,18.5564,-11.4271,89.94,12,2,7.74,MR,2025-03-09 12:44:26
139,salym,60.0625,71.4789,3.42,98,99,3.29,RU,2025-03-09 12:44:27
140,berezovyy,51.6667,135.7,7.59,88,6,5.68,RU,2025-03-09 12:44:29
141,carnarvon,-24.8667,113.6333,75.56,71,0,24.83,AU,2025-03-09 12:44:30
142,papatowai,-46.5619,169.4708,49.96,94,100,4.18,NZ,2025-03-09 12:44:32
143,santa cruz,-17.8,-63.1667,69.85,100,100,13.8,BO,2025-03-09 12:42:27
144,puerto ayora,-0.7393,-90.3518,74.55,97,59,2.24,EC,2025-03-09 12:44:34
145,balaipungut,1.05,101.2833,75.49,94,100,2.66,ID,2025-03-09 12:44:35
146,jeddah,21.5169,39.2192,82.26,36,0,16.11,SA,2025-03-09 12:44:36
147,constitucion,-35.3333,-72.4167,62.42,41,38,4.9,CL,2025-03-09 12:44:37
148,aasiaat,68.7098,-52.8699,24.17,94,71,3.96,GL,2025-03-09 12:44:38
149,sidney,-33.8679,151.2073,73.69,80,1,5.01,AU,2025-03-09 12:41:30
150,moranbah,-22.0016,148.0466,78.75,76,100,15.61,AU,2025-03-09 12:44:40
151,chengde,40.9725,117.9361,43.79,48,0,5.37,CN,2025-03-09 12:44:41
152,atar,20.5169,-13.0499,84.0,20,0,9.22,MR,2025-03-09 12:44:43
153,salina cruz,16.1667,-95.2,75.34,88,69,6.58,MX,2025-03-09 12:44:44
154,solnechniy,56.5438,48.4044,34.68,87,93,13.2,RU,2025-03-09 12:44:45
155,florencia,43.7667,11.25,64.35,59,40,3.44,IT,2025-03-09 12:44:46
156,thompson,55.7435,-97.8558,-0.24,85,75,3.44,CA,2025-03-09 12:44:47
157,yellowknife,62.456,-114.3525,-19.68,76,75,5.75,CA,2025-03-09 12:44:49
158,kruisfontein,-34.0033,24.7314,72.37,73,96,12.33,ZA,2025-03-09 12:44:50
159,arno,60.1167,18.6333,41.11,71,100,8.77,SE,2025-03-09 12:44:51
160,salinopolis,-0.6136,-47.3561,78.87,86,89,7.49,BR,2025-03-09 12:44:52
161,coahuayana de hidalgo,18.7,-103.6583,68.59,42,0,3.94,MX,2025-03-09 12:44:53
162,sao joao de pirabas,-0.7747,-47.1772,78.62,87,97,5.68,BR,2025-03-09 12:44:54
163,pelabuhanratu,-6.9875,106.5514,78.06,89,100,3.13,ID,2025-03-09 12:40:02
164,drummondville,45.8834,-72.4824,22.01,77,100,9.89,CA,2025-03-09 12:43:04
165,al qusiyah,27.4402,30.8184,76.42,24,0,9.35,EG,2025-03-09 12:44:58
166,league city,29.5075,-95.0949,54.99,85,100,19.57,US,2025-03-09 12:44:17
167,zouerate,22.7187,-12.4521,74.23,34,0,7.92,MR,2025-03-09 12:45:00
168,badger,64.8,-147.5333,21.07,67,40,11.5,US,2025-03-09 12:45:02
169,isangel,-19.55,169.2667,74.23,77,85,12.88,VU,2025-03-09 12:45:03
170,tazovsky,67.4667,78.7,-21.17,92,13,5.95,RU,2025-03-09 12:45:05
171,iqaluit,63.7506,-68.5145,20.93,62,100,5.75,CA,2025-03-09 12:45:06
172,librazhd-qender,41.1969,20.3356,63.28,43,0,6.33,AL,2025-03-09 12:45:07
173,carthage,36.8611,10.3316,71.13,56,20,12.66,TN,2025-03-09 12:45:08
174,kapa'a,22.0752,-159.319,71.92,93,75,21.85,US,2025-03-09 12:45:09
175,bontang,0.1333,117.5,80.1,79,100,14.99,ID,2025-03-09 12:45:10
176,el granada,37.5027,-122.4694,48.27,75,0,4.61,US,2025-03-09 12:45:11
177,ras al khaimah city,25.7895,55.9432,88.02,25,0,23.02,AE,2025-03-09 12:44:11
178,riachao das neves,-11.7461,-44.91,87.84,37,92,6.17,BR,2025-03-09 12:45:13
179,pernik,42.6,23.0333,59.43,30,100,1.61,BG,2025-03-09 12:45:15
180,saudarkrokur,65.7461,-19.6394,28.04,81,95,10.87,IS,2025-03-09 12:45:16
181,idri,27.5,13.2667,84.81,19,0,6.64,LY,2025-03-09 12:45:18
182,susuman,62.7833,148.1667,-18.92,96,100,4.5,RU,2025-03-09 12:45:21
183,anloga,5.7947,0.8973,85.95,73,100,14.58,GH,2025-03-09 12:45:22
184,sao jose da coroa grande,-8.8978,-35.1478,82.02,73,52,8.23,BR,2025-03-09 12:45:24
185,el hadjira,32.6134,5.5126,85.06,14,0,23.91,DZ,2025-03-09 12:45:26
186,rabaul,-4.1967,152.1721,81.84,77,29,1.63,PG,2025-03-09 12:45:28
187,lazaro cardenas,17.9583,-102.2,70.95,91,22,6.13,MX,2025-03-09 12:45:29
188,taltal,-25.4,-70.4833,68.49,76,3,3.04,CL,2025-03-09 12:45:31
189,salinas,36.6777,-121.6555,44.8,87,0,3.44,US,2025-03-09 12:43:59
190,hadibu,12.65,54.0333,82.17,64,5,8.48,YE,2025-03-09 12:45:33
191,kristinestad,62.2743,21.376,32.31,82,100,4.32,FI,2025-03-09 12:45:34
192,selfoss,63.9331,-20.9971,29.05,51,50,4.56,IS,2025-03-09 12:43:45
193,kingston,17.997,-76.7936,79.16,73,20,3.44,JM,2025-03-09 12:43:21
194,ternate,0.8,127.4,80.78,77,93,6.22,ID,2025-03-09 12:45:37
195,telimele,10.9167,-13.3333,100.74,15,58,3.29,GN,2025-03-09 12:45:38
196,walvis bay,-22.9575,14.5053,72.43,68,100,13.38,NA,2025-03-09 12:45:41
197,orosei,40.3798,9.6929,59.02,91,100,10.47,IT,2025-03-09 12:45:42
198,myingyan,21.4667,95.3833,85.48,16,0,2.64,MM,2025-03-09 12:45:43
199,paramaribo,5.8667,-55.1667,80.51,83,40,5.75,SR,2025-03-09 12:45:44
200,mendi,-6.1761,143.6513,58.19,99,100,1.16,PG,2025-03-09 12:45:45
201,rikaze,29.25,88.8833,47.84,12,99,1.32,CN,2025-03-09 12:45:46
202,egilsstadir,65.2653,-14.3948,31.91,64,0,8.05,IS,2025-03-09 12:45:48
203,happy valley-goose bay,53.3168,-60.3315,17.91,79,75,10.36,CA,2025-03-09 12:45:49
204,arsikere,13.3139,76.2561,86.14,16,10,8.46,IN,2025-03-09 12:45:50
205,bazarnyy karabulak,52.2683,46.4144,35.73,93,18,13.24,RU,2025-03-09 12:45:51
206,monrovia,6.3005,-10.7969,83.7,71,82,11.3,LR,2025-03-09 12:45:52
207,fukuecho,32.6881,128.8419,50.88,61,74,15.21,JP,2025-03-09 12:45:53
208,zapala,-38.8992,-70.0544,55.29,28,3,7.34,AR,2025-03-09 12:45:54
209,altay,47.8667,88.1167,28.94,91,100,5.08,CN,2025-03-09 12:45:55
210,nantucket,41.2835,-70.0995,34.14,51,0,12.66,US,2025-03-09 12:42:53
211,hirara,24.8,125.2833,67.86,88,20,12.66,JP,2025-03-09 12:45:57
212,nieuw amsterdam,5.8833,-55.0833,80.62,83,40,5.75,SR,2025-03-09 12:45:59
213,richards bay,-28.783,32.0377,94.6,40,5,11.18,ZA,2025-03-09 12:41:07
214,riberalta,-10.9833,-66.1,77.2,88,75,0.0,BO,2025-03-09 12:46:02
215,tejen,37.3834,60.5054,57.87,47,100,7.63,TM,2025-03-09 12:46:03
216,chibougamau,49.9168,-74.3659,-2.58,78,75,2.3,CA,2025-03-09 12:43:04
217,nagqu,31.5,92.0,24.03,18,1,6.2,CN,2025-03-09 12:46:05
218,ust'-kulom,61.6864,53.6902,22.78,94,100,9.04,RU,2025-03-09 12:46:06
219,tianpeng,30.9866,103.9393,51.06,71,98,1.01,CN,2025-03-09 12:46:08
220,mpongwe,-13.5091,28.155,76.59,69,100,3.33,ZM,2025-03-09 12:46:09
221,rafraf,37.1904,10.1837,66.31,64,90,21.23,TN,2025-03-09 12:46:10
222,muynoq,43.7683,59.0214,39.36,63,35,10.83,UZ,2025-03-09 12:46:11
223,petrozavodsk,61.7849,34.3469,33.26,64,100,11.18,RU,2025-03-09 12:46:12
224,codrington,-38.2667,141.9667,68.25,78,0,8.88,AU,2025-03-09 12:46:13
225,puerto santa,-8.9906,-78.6456,72.57,83,100,6.38,PE,2025-03-09 12:46:15
226,rongelap,11.1635,166.8941,80.2,81,26,23.71,MH,2025-03-09 12:46:17
227,mount gambier,-37.8333,140.7667,70.45,63,0,8.46,AU,2025-03-09 12:46:19
228,alice springs,-23.7,133.8833,90.95,13,77,5.75,AU,2025-03-09 12:46:20
229,hammond,41.5834,-87.5,31.48,65,0,4.61,US,2025-03-09 12:46:21
230,lagos,6.5833,3.75,90.43,59,100,8.59,NG,2025-03-09 12:45:02
231,hotan,37.0997,79.9269,55.9,18,100,11.54,CN,2025-03-09 12:46:23
232,bubaque,11.2833,-15.8333,78.57,48,86,5.48,GW,2025-03-09 12:46:25
233,mount isa,-20.7333,139.5,82.17,69,55,0.0,AU,2025-03-09 12:46:26
234,itoman,26.1247,127.6694,68.09,83,75,8.05,JP,2025-03-09 12:46:27
235,ilanskiy,56.2358,96.065,12.43,94,81,4.92,RU,2025-03-09 12:46:28
236,nova vicosa,-17.8919,-39.3719,81.37,71,34,0.63,BR,2025-03-09 12:46:29
237,pangody,65.85,74.4859,-13.95,89,6,7.99,RU,2025-03-09 12:46:30
238,conceicao da barra,-18.5933,-39.7322,85.73,55,21,4.99,BR,2025-03-09 12:46:31
239,ushuaia,-54.8,-68.3,47.86,61,40,19.57,AR,2025-03-09 12:42:06
240,crane,31.3974,-102.3501,41.27,63,9,12.55,US,2025-03-09 12:46:34
241,tamanrasset,22.785,5.5228,84.11,15,40,17.27,DZ,2025-03-09 12:46:35
242,palikir - national government center,6.9248,158.1611,81.93,74,40,10.36,FM,2025-03-09 12:46:36
243,kavaratti,10.5669,72.642,82.31,70,9,6.17,IN,2025-03-09 12:46:38
244,yangambi,0.8102,24.4336,95.0,34,100,3.96,CD,2025-03-09 12:46:39
245,weno,7.4515,151.8468,84.15,79,40,9.22,FM,2025-03-09 12:46:40
246,maxixe,-23.8597,35.3472,89.42,66,40,13.8,MZ,2025-03-09 12:46:41
247,saipan,15.1355,145.701,81.3,83,0,10.36,MP,2025-03-09 12:46:42
248,hjo,58.3013,14.2878,55.02,71,19,5.91,SE,2025-03-09 12:46:44
249,fortaleza,-3.7227,-38.5247,86.13,66,20,16.11,BR,2025-03-09 12:42:53
250,wanxian,30.8039,108.3897,52.63,86,100,1.21,CN,2025-03-09 12:46:46
251,tazacorte,28.629,-17.9293,67.17,79,40,11.01,ES,2025-03-09 12:46:47
252,dunedin,-45.8742,170.5036,53.8,84,41,1.99,NZ,2025-03-09 12:46:49
253,holualoa,19.6228,-155.9522,67.84,75,0,1.01,US,2025-03-09 12:42:53
254,necochea,-38.5473,-58.7368,62.55,56,36,12.5,AR,2025-03-09 12:45:02
255,los palacios y villafranca,37.1618,-5.9243,54.14,82,83,17.27,ES,2025-03-09 12:46:53
256,rumonge,-3.9736,29.4386,80.69,67,76,5.32,BI,2025-03-09 12:46:55
257,fortuna,40.5982,-124.1573,38.32,100,0,8.05,US,2025-03-09 12:46:57
258,consuegra,39.4625,-3.608,49.8,59,69,17.09,ES,2025-03-09 12:46:58
259,imbituba,-28.24,-48.6703,81.14,64,2,12.73,BR,2025-03-09 12:46:59
260,kapenguria,1.2511,35.0895,65.71,70,100,5.08,KE,2025-03-09 12:47:00
261,rochester,43.1548,-77.6156,33.44,75,75,6.91,US,2025-03-09 12:45:48
262,yerevan,40.1811,44.5136,60.96,20,0,4.61,AM,2025-03-09 12:38:23
263,saint-philippe,-21.3585,55.7679,81.1,81,36,9.55,RE,2025-03-09 12:47:04
264,anadyr,64.75,177.4833,1.9,71,0,4.47,RU,2025-03-09 12:47:06
265,trenggalek,-8.05,111.7167,75.78,96,100,3.02,ID,2025-03-09 12:47:07
266,babolsar,36.7025,52.6576,52.81,73,83,7.52,IR,2025-03-09 12:47:08
267,as sulayyil,20.4607,45.5779,88.36,25,5,12.28,SA,2025-03-09 12:47:09
268,mandera,3.9366,41.867,98.91,28,100,3.2,KE,2025-03-09 12:47:10
269,hinton,53.4001,-117.5857,30.51,98,100,1.66,CA,2025-03-09 12:47:11
270,buka,40.8108,69.1986,56.3,54,100,7.65,UZ,2025-03-09 12:47:13
271,jamestown,42.097,-79.2353,30.56,84,40,6.91,US,2025-03-09 12:47:10
272,kirakira,-10.4544,161.9205,78.94,83,54,1.63,SB,2025-03-09 12:47:16
273,arcos,-20.2819,-45.5394,79.18,40,0,3.91,BR,2025-03-09 12:47:18
274,st. john's,47.5649,-52.7093,34.29,92,75,3.44,CA,2025-03-09 12:46:52
275,kolonia,50.9333,6.95,66.94,31,0,4.61,DE,2025-03-09 12:47:20
276,northam,51.0333,-4.2167,59.81,57,100,5.99,GB,2025-03-09 12:47:21
277,east london,-33.0153,27.9116,76.14,73,20,18.41,ZA,2025-03-09 12:44:56
278,aberdeen,57.1437,-2.0981,59.25,65,25,4.61,GB,2025-03-09 12:43:18
279,port alfred,-33.5906,26.891,73.18,84,52,7.0,ZA,2025-03-09 12:47:24
280,soio,-6.1349,12.3689,84.4,66,91,4.74,AO,2025-03-09 12:47:26
281,catia la mar,10.6038,-67.0303,80.49,83,20,3.44,VE,2025-03-09 12:47:27
282,majuro,7.0897,171.3803,82.36,78,100,12.66,MH,2025-03-09 12:47:28
283,afif,23.9065,42.9172,76.23,24,1,13.35,SA,2025-03-09 12:47:29
284,vernal,40.4555,-109.5287,29.66,74,0,3.44,US,2025-03-09 12:47:30
285,tyukhtet,56.5389,89.3011,10.2,95,98,3.74,RU,2025-03-09 12:47:31
286,afaahiti,-17.75,-149.2833,80.28,81,96,16.49,PF,2025-03-09 12:47:32
287,soledade,-28.8183,-52.5103,73.98,75,99,8.63,BR,2025-03-09 12:47:33
288,santiago,-33.4569,-70.6483,71.06,50,0,1.99,CL,2025-03-09 12:42:43
289,stulpicani,47.4667,25.7667,62.89,21,100,2.89,RO,2025-03-09 12:47:36
290,turan,16.0678,108.2208,71.58,88,75,5.75,VN,2025-03-09 12:47:37
291,batticaloa,7.7102,81.6924,78.76,72,50,7.67,LK,2025-03-09 12:47:38
292,urangan,-25.3,152.9,77.72,85,100,17.54,AU,2025-03-09 12:47:40
293,gisborne,-38.6533,178.0042,62.62,65,98,14.76,NZ,2025-03-09 12:47:41
294,licheng,23.2955,113.8284,70.3,64,8,3.83,CN,2025-03-09 12:47:42
295,zelenogorskiy,55.0333,87.0,22.39,95,100,4.18,RU,2025-03-09 12:47:45
296,kerikeri,-35.2268,173.9474,54.63,87,0,4.5,NZ,2025-03-09 12:47:46
297,mili,6.0815,171.735,81.21,78,22,23.58,MH,2025-03-09 12:47:47
298,villa canas,-34.0057,-61.6076,61.95,79,0,9.48,AR,2025-03-09 12:47:48
299,fort st. john,56.2499,-120.8529,12.09,79,75,12.66,CA,2025-03-09 12:43:33
300,minas de marcona,-15.2119,-75.1103,65.59,74,74,8.72,PE,2025-03-09 12:47:50
301,hamilton,39.1834,-84.5333,37.98,69,40,4.61,US,2025-03-09 12:47:32
302,qacha's nek,-30.1154,28.6894,80.1,26,42,6.46,LS,2025-03-09 12:47:52
303,qaqortoq,60.7167,-46.0333,36.9,70,100,24.29,GL,2025-03-09 12:47:53
304,pandan,14.0453,124.1694,77.92,89,100,14.81,PH,2025-03-09 12:47:55
305,ola,59.5833,151.2833,-19.14,93,75,5.44,RU,2025-03-09 12:47:56
306,sinabang,2.4803,96.3801,81.19,78,100,7.25,ID,2025-03-09 12:47:57
307,mugia,43.1041,-9.2179,53.91,71,90,26.8,ES,2025-03-09 12:47:58
308,auki,-8.7676,160.7034,76.48,88,52,3.13,SB,2025-03-09 12:47:59
309,miracema do tocantins,-9.5618,-48.3967,83.88,66,100,4.14,BR,2025-03-09 12:48:00
310,franceville,-1.6333,13.5836,90.05,55,75,2.93,GA,2025-03-09 12:45:32
311,masterton,-40.9597,175.6575,55.63,80,100,2.66,NZ,2025-03-09 12:48:02
312,jaguaribe,-5.8906,-38.6219,83.16,59,100,6.08,BR,2025-03-09 12:48:03
313,galeana,24.8333,-100.0667,38.5,55,98,2.71,MX,2025-03-09 12:48:05
314,sandnessjoen,66.0217,12.6316,33.85,71,100,7.76,NO,2025-03-09 12:48:06
315,la passe,45.5549,-0.8967,53.08,79,100,4.36,FR,2025-03-09 12:48:07
316,sebastopol,44.6,33.5333,54.0,45,100,1.99,UA,2025-03-09 12:48:08
317,bhagwantnagar,26.2333,80.75,79.92,13,0,6.2,IN,2025-03-09 12:48:09
318,bikenibeu village,1.3673,173.1241,80.56,89,20,6.91,KI,2025-03-09 12:48:10
319,arkalyk,50.2486,66.9114,9.52,97,63,8.23,KZ,2025-03-09 12:48:11
320,melilla,35.2937,-2.9383,61.18,55,40,9.22,ES,2025-03-09 12:48:12
321,huangzhou,30.45,114.8,50.58,86,100,3.8,CN,2025-03-09 12:48:14
322,nepomuceno,-21.2358,-45.2358,79.57,55,0,3.06,BR,2025-03-09 12:48:15
323,gilgit,35.9221,74.3087,39.43,54,100,2.73,PK,2025-03-09 12:44:18
324,urucara,-2.5364,-57.76,73.47,98,100,1.88,BR,2025-03-09 12:48:17
325,nioki,-2.7167,17.6833,93.07,40,100,3.76,CD,2025-03-09 12:48:18
326,mana,5.6592,-53.7767,82.33,69,78,7.85,GF,2025-03-09 12:48:19
327,bel ombre,-4.6167,55.4167,85.84,70,20,3.44,SC,2025-03-09 12:48:20
328,thinadhoo,0.5333,72.9333,82.67,70,6,11.65,MV,2025-03-09 12:48:21
329,mwadui,-3.55,33.6,84.54,42,99,3.98,TZ,2025-03-09 12:48:22
330,valparaiso,-33.0393,-71.6273,66.47,64,0,3.44,CL,2025-03-09 12:46:51
331,chui,-33.6971,-53.4616,70.29,48,4,15.97,UY,2025-03-09 12:48:25
332,namtsy,62.7161,129.6658,-2.81,98,100,6.26,RU,2025-03-09 12:48:26
333,ngambe,4.2333,10.6167,95.45,30,79,5.37,CM,2025-03-09 12:48:27
334,satu mare,47.8,22.8833,67.96,24,93,2.3,RO,2025-03-09 12:48:28
335,lepsy,46.235,78.9456,34.02,78,95,23.09,KZ,2025-03-09 12:48:29
336,vershino-darasunskiy,52.35,115.5167,19.15,97,100,3.09,RU,2025-03-09 12:48:30
337,port mathurin,-19.6833,63.4167,81.66,68,35,11.05,MU,2025-03-09 12:48:31
338,auburn,47.3073,-122.2284,49.32,86,100,12.66,US,2025-03-09 12:40:03
339,sola,-13.8833,167.55,82.17,74,8,4.79,VU,2025-03-09 12:48:33
340,qulsary,46.9531,54.0198,34.72,77,11,3.13,KZ,2025-03-09 12:48:35
341,swakopmund,-22.6833,14.5333,66.52,85,100,10.09,NA,2025-03-09 12:48:36
342,butte,39.6499,-121.5677,48.22,71,0,6.91,US,2025-03-09 12:48:37
343,aldan,58.6031,125.3894,6.62,96,98,3.38,RU,2025-03-09 12:47:00
344,prince rupert,54.3161,-130.3201,40.69,87,100,17.27,CA,2025-03-09 12:48:39
345,the pinery,39.4553,-104.7344,35.04,41,0,6.91,US,2025-03-09 12:48:40
346,george town,5.4112,100.3354,87.73,66,20,3.44,MY,2025-03-09 12:44:09
347,cartagena,10.3997,-75.5144,76.62,94,20,4.61,CO,2025-03-09 12:48:43
348,luderitz,-26.6481,15.1594,72.57,68,4,21.34,NA,2025-03-09 12:48:44
349,san lawrenz,36.0553,14.204,64.85,73,4,9.55,MT,2025-03-09 12:48:45
350,hubynykha,48.8108,35.2547,58.78,42,48,5.28,UA,2025-03-09 12:48:47
351,papao,-17.75,-149.55,76.68,79,100,17.2,PF,2025-03-09 12:48:48
352,katsuura,35.1333,140.3,46.74,66,17,11.74,JP,2025-03-09 12:48:49
353,luanda,-8.8368,13.2343,82.31,71,46,11.65,AO,2025-03-09 12:43:54
354,male,4.1748,73.5089,87.75,74,40,5.75,MV,2025-03-09 12:48:51
355,kuytun,54.3419,101.5036,17.98,93,100,2.91,RU,2025-03-09 12:48:53
356,tangalle,6.024,80.7911,79.29,74,6,9.37,LK,2025-03-09 12:48:54
357,haiku-pauwela,20.9219,-156.3051,68.22,93,75,8.99,US,2025-03-09 12:48:55
358,port-vila,-17.7338,168.3219,77.11,81,100,15.23,VU,2025-03-09 12:48:56
359,remire-montjoly,4.9167,-52.2667,75.24,94,75,8.05,GF,2025-03-09 12:48:57
360,howard springs,-12.497,131.047,76.91,100,100,1.16,AU,2025-03-09 12:48:59
361,alofi,-19.0595,-169.9187,80.49,83,20,9.22,NU,2025-03-09 12:49:00
362,ostersund,63.1792,14.6357,32.61,95,100,11.5,SE,2025-03-09 12:49:01
363,nuuk,64.1835,-51.7216,39.81,60,100,31.07,GL,2025-03-09 12:49:03
364,suncho corral,-27.9336,-63.4294,67.62,50,100,12.91,AR,2025-03-09 12:49:04
365,quibala,-10.7337,14.98,77.45,61,100,2.73,AO,2025-03-09 12:49:05
366,ishigaki,24.3448,124.1572,66.33,82,40,12.66,JP,2025-03-09 12:49:06
367,tshikapa,-6.4167,20.8,89.11,50,87,2.37,CD,2025-03-09 12:49:07
368,khandyga,62.6667,135.6,-29.87,100,13,2.3,RU,2025-03-09 12:49:09
369,camargo,27.6667,-105.1667,40.33,40,0,6.8,MX,2025-03-09 12:49:10
370,dakhla,23.6848,-15.958,68.02,64,75,11.5,EH,2025-03-09 12:49:11
371,port shepstone,-30.7414,30.455,81.41,76,0,19.3,ZA,2025-03-09 12:49:12
372,volosovo,59.4333,29.4833,40.6,49,74,6.62,RU,2025-03-09 12:49:13
373,guichon,-32.35,-57.2,68.27,53,0,13.8,UY,2025-03-09 12:49:14
374,albert lea,43.648,-93.3683,32.85,93,0,6.91,US,2025-03-09 12:49:15
375,tanumah,27.1,44.1333,71.53,29,0,2.57,SA,2025-03-09 12:49:16
376,la'ie,21.6477,-157.9253,72.79,77,100,11.01,US,2025-03-09 12:49:17
377,sisimiut,66.9395,-53.6735,34.39,98,100,3.85,GL,2025-03-09 12:49:18
378,saint joseph,39.7686,-94.8466,30.22,93,0,0.0,US,2025-03-09 12:49:20
379,lae,-6.7221,146.9847,75.04,88,100,1.07,PG,2025-03-09 12:49:21
380,maryland heights,38.7131,-90.4298,35.31,68,20,0.0,US,2025-03-09 12:49:22
381,lalsot,26.5667,76.3333,76.53,18,6,1.28,IN,2025-03-09 12:49:23
382,huanren,41.2647,125.3667,36.93,73,0,5.12,CN,2025-03-09 12:49:25
383,kayangel,8.0823,134.7173,83.05,79,72,18.23,PW,2025-03-09 12:49:27
384,port lincoln,-34.7333,135.8667,74.77,66,5,8.32,AU,2025-03-09 12:49:29
385,arraial do cabo,-22.9661,-42.0278,85.96,65,0,14.97,BR,2025-03-09 12:49:31
386,paita,-5.0892,-81.1144,78.46,70,96,6.73,PE,2025-03-09 12:49:33
387,kurchatov,51.6601,35.6521,55.47,48,10,7.07,RU,2025-03-09 12:49:35
388,bridgewater,44.3835,-64.5155,25.68,62,95,17.27,CA,2025-03-09 12:47:01
389,santa terezinha,-29.9002,-50.0904,74.39,91,100,16.87,BR,2025-03-09 12:49:37
390,mountain home,43.133,-115.6912,33.28,82,0,12.66,US,2025-03-09 12:47:36
391,balsas,-7.5325,-46.0356,82.54,69,100,5.73,BR,2025-03-09 12:49:40
392,lichinga,-13.3128,35.2406,77.09,65,40,17.27,MZ,2025-03-09 12:49:41
393,ebon,4.582,168.6964,81.16,79,22,20.2,MH,2025-03-09 12:49:42
394,jabat,7.75,168.9751,81.12,78,16,25.3,MH,2025-03-09 12:49:43
395,naze,28.3667,129.4833,61.72,73,100,13.91,JP,2025-03-09 12:49:44
396,banda aceh,5.5577,95.3222,81.57,80,100,1.83,ID,2025-03-09 12:48:02
397,acarau,-2.8856,-40.12,75.54,91,100,7.99,BR,2025-03-09 12:45:16
398,robertsport,6.7533,-11.3686,80.47,73,90,9.82,LR,2025-03-09 12:49:48
399,kirensk,57.7853,108.1119,6.98,98,74,5.21,RU,2025-03-09 12:49:49
400,igarka,67.4667,86.5833,-17.07,88,3,6.46,RU,2025-03-09 12:49:50
401,ubari,26.5921,12.7805,86.5,20,0,9.19,LY,2025-03-09 12:49:51
402,san juan de miraflores,-12.1629,-76.9635,74.17,86,100,6.17,PE,2025-03-09 12:49:52
403,lesosibirsk,58.2358,92.4828,12.15,97,100,1.52,RU,2025-03-09 12:49:53
404,miandrivazo,-19.5167,45.4667,83.34,70,100,5.91,MG,2025-03-09 12:49:54
405,snyder,32.7179,-100.9176,39.54,93,100,11.5,US,2025-03-09 12:49:55
406,prado,-17.3411,-39.2208,83.05,63,0,2.59,BR,2025-03-09 12:45:15
407,lospalos,-8.5186,127.0025,74.12,90,100,0.92,TL,2025-03-09 12:49:58
408,pisco,-13.7,-76.2167,71.65,73,0,4.61,PE,2025-03-09 12:49:07
409,dalbandin,28.8947,64.4101,80.42,19,100,3.13,PK,2025-03-09 12:50:00
410,porbandar,21.6422,69.6093,82.99,51,0,14.85,IN,2025-03-09 12:50:01
411,chipinge,-20.1883,32.6236,79.5,54,33,5.82,ZW,2025-03-09 12:50:02
412,lodeynoye pole,60.726,33.5531,33.8,82,88,10.51,RU,2025-03-09 12:50:03
413,morehead city,34.7229,-76.726,48.2,69,0,6.91,US,2025-03-09 12:47:37
414,labrador city,52.9463,-66.9114,1.31,71,75,10.36,CA,2025-03-09 12:44:12
415,tobelo,1.7284,128.0095,80.89,83,46,7.99,ID,2025-03-09 12:50:06
416,kumagunnam,13.1551,10.6342,102.96,9,52,15.3,NG,2025-03-09 12:50:07
417,hashtrud,37.4779,47.0508,38.57,89,100,3.15,IR,2025-03-09 12:50:09
418,elliot lake,46.3834,-82.6331,20.23,82,0,6.04,CA,2025-03-09 12:50:10
419,conde,-7.2597,-34.9075,83.66,84,40,11.5,BR,2025-03-09 12:47:16
420,bucerias,20.75,-105.3333,63.99,94,0,3.44,MX,2025-03-09 12:50:12
421,bethlehem,-1.4558,-48.5044,80.64,83,75,2.3,BR,2025-03-09 12:48:13
422,wilmington island,32.0036,-80.9737,55.49,69,100,10.36,US,2025-03-09 12:50:14
423,baume-les-dames,47.353,6.3612,62.29,42,98,7.38,FR,2025-03-09 12:50:15
424,stanthorpe,-28.6667,151.95,62.42,98,100,15.59,AU,2025-03-09 12:50:16
425,vieux-habitants,16.0589,-61.7659,78.84,67,9,6.2,GP,2025-03-09 12:50:17
426,mangaldai,26.4333,92.0333,77.67,25,2,5.75,IN,2025-03-09 12:50:19
427,puerto baquerizo moreno,-0.9,-89.6,79.45,76,72,2.17,EC,2025-03-09 12:50:20
428,lethem,3.3803,-59.7968,78.85,83,75,9.22,GY,2025-03-09 12:50:21
429,tamandare,-8.7597,-35.1047,81.9,73,51,7.45,BR,2025-03-09 12:50:22
430,mata-utu,-13.2816,-176.1745,79.99,82,100,17.85,WF,2025-03-09 12:50:23
431,labuan,5.2767,115.2417,82.76,83,20,7.0,MY,2025-03-09 12:50:24
432,ponta delgada,37.7333,-25.6667,57.92,82,75,16.11,PT,2025-03-09 12:47:32
433,malindi,-3.2175,40.1191,89.76,58,40,11.5,KE,2025-03-09 12:50:26
434,serhiyivka,46.0272,30.3768,48.83,69,78,9.28,UA,2025-03-09 12:50:28
435,reyes,-14.3167,-67.3833,73.56,100,100,0.0,BO,2025-03-09 12:50:29
436,vrangel',42.7297,133.0839,34.16,74,0,3.42,RU,2025-03-09 12:50:30
437,kargasok,59.0556,80.8572,15.69,97,98,4.54,RU,2025-03-09 12:50:31
438,zaysan,47.4667,84.8667,36.05,83,100,17.96,KZ,2025-03-09 12:50:32
439,hovd,48.0056,91.6419,20.5,71,100,5.32,MN,2025-03-09 12:50:33
440,nadi,-17.8,177.4167,77.0,78,40,6.91,FJ,2025-03-09 12:50:34
441,leava,-14.3,-178.1667,80.26,82,86,19.26,WF,2025-03-09 12:50:35
442,ugbokpo,7.6565,7.8664,103.69,21,85,5.08,NG,2025-03-09 12:50:36
443,tinghir,31.5157,-5.5343,58.21,27,0,3.85,MA,2025-03-09 12:50:37
444,san martin de los andes,-40.1604,-71.3486,53.56,31,93,1.32,AR,2025-03-09 12:46:08
445,bodo,67.28,14.405,34.45,86,40,14.97,NO,2025-03-09 12:50:40
446,lata,40.1629,-8.3327,56.48,65,88,10.65,PT,2025-03-09 12:50:41
447,krasnovishersk,60.4078,57.082,21.27,93,100,10.71,RU,2025-03-09 12:46:59
448,saint john,45.2727,-66.0677,20.43,58,20,14.97,CA,2025-03-09 12:46:45
449,arkhangel'sk,64.5401,40.5433,28.51,93,100,8.95,RU,2025-03-09 12:50:44
450,damavand,35.7178,52.065,41.7,86,100,3.49,IR,2025-03-09 12:50:45
451,baotou,40.6522,109.8222,44.24,32,5,3.53,CN,2025-03-09 12:50:46
452,arawa,-6.2132,155.5367,77.61,91,93,0.2,PG,2025-03-09 12:50:47
453,ulsteinvik,62.3432,5.8487,40.1,94,100,1.01,NO,2025-03-09 12:50:48
454,jabal os saraj,35.1183,69.2378,52.99,35,100,1.92,AF,2025-03-09 12:50:50
455,dipayal,29.2608,80.94,63.18,43,29,3.87,NP,2025-03-09 12:50:51
456,mahanoro,-19.9,48.8,80.64,83,100,4.27,MG,2025-03-09 12:50:52
457,el triunfo,-1.9333,-79.9667,78.84,93,100,2.24,EC,2025-03-09 12:50:53
458,magadan,59.5667,150.8,-18.27,85,31,5.75,RU,2025-03-09 12:50:54
459,sanctuary point,-35.1114,150.629,66.45,88,0,6.69,AU,2025-03-09 12:50:55
460,camana,-16.6228,-72.7111,73.0,77,53,7.47,PE,2025-03-09 12:46:17
461,gornozavodsk,58.3758,58.3211,23.0,95,100,10.74,RU,2025-03-09 12:50:57
462,westport,41.1415,-73.3579,33.75,58,0,8.05,US,2025-03-09 12:46:50
463,sabang,5.8933,95.3214,84.13,78,100,16.6,ID,2025-03-09 12:51:00
464,cabo san lucas,22.8909,-109.9124,59.76,75,0,3.78,MX,2025-03-09 12:47:22
465,yunyang,33.4474,112.7142,48.61,82,87,8.01,CN,2025-03-09 12:51:02
466,kone,-21.0595,164.8658,73.78,84,54,4.85,NC,2025-03-09 12:51:03
467,korla,41.7597,86.1469,50.79,24,4,4.68,CN,2025-03-09 12:51:04
468,moose jaw,50.4001,-105.5344,34.05,80,97,9.22,CA,2025-03-09 12:51:05
469,iwanai,42.9744,140.5089,30.24,76,41,5.84,JP,2025-03-09 12:51:06
470,majalgaon,19.15,76.2333,91.4,14,0,3.69,IN,2025-03-09 12:51:07
471,hopelchen,19.7667,-89.85,75.09,83,71,5.93,MX,2025-03-09 12:51:08
472,blankenberge,51.3131,3.1323,64.99,35,100,1.99,BE,2025-03-09 12:51:10
473,jayapura,-2.5333,140.7,79.99,85,100,6.82,ID,2025-03-09 12:51:11
474,serdar,38.9764,56.2757,60.66,38,100,4.94,TM,2025-03-09 12:51:12
475,makubetsu,45.3714,141.8211,25.07,63,75,7.65,JP,2025-03-09 12:51:13
476,hammerfest,70.6634,23.6821,32.45,86,75,11.5,NO,2025-03-09 12:51:14
477,mont-laurier,46.5501,-75.4993,17.65,95,100,6.35,CA,2025-03-09 12:50:07
478,kyosai,34.8503,128.5886,46.33,61,100,9.35,KR,2025-03-09 12:51:16
479,kisangani,0.5167,25.2,86.36,66,75,6.91,CD,2025-03-09 12:51:17
480,ta`u,-14.2336,-169.5144,81.27,74,100,18.32,AS,2025-03-09 12:51:19
481,vorkuta,67.5,64.0,-7.91,94,14,3.89,RU,2025-03-09 12:51:20
482,wellington,-41.2866,174.7756,58.66,88,75,5.75,NZ,2025-03-09 12:50:31
483,whangarei,-35.7317,174.3239,58.84,77,30,4.38,NZ,2025-03-09 12:47:31
484,concordia,-31.393,-58.0209,71.78,65,0,15.99,AR,2025-03-09 12:51:23
485,colonia,50.9333,6.95,66.9,32,0,4.61,DE,2025-03-09 12:51:25
486,yucca valley,34.1142,-116.4322,43.25,39,0,5.01,US,2025-03-09 12:51:18
487,brookings,44.3114,-96.7984,35.06,80,0,4.61,US,2025-03-09 12:51:27
488,poltavka,54.3663,71.7632,11.48,94,100,8.79,RU,2025-03-09 12:51:28
489,huarmey,-10.0681,-78.1522,74.37,78,100,6.31,PE,2025-03-09 12:51:29
490,kamyshlov,56.8428,62.7111,18.37,90,100,8.39,RU,2025-03-09 12:51:30
491,sudak,44.85,34.9667,48.54,65,100,8.48,UA,2025-03-09 12:51:31
492,greymouth,-42.4667,171.2,54.03,94,31,5.5,NZ,2025-03-09 12:49:03
493,sesheke,-17.4759,24.2968,81.01,62,100,3.96,ZM,2025-03-09 12:51:33
494,eket,4.6412,7.9209,91.6,57,10,12.68,NG,2025-03-09 12:51:34
495,eydhafushi,5.1033,73.0708,83.73,75,31,11.27,MV,2025-03-09 12:51:37
496,illizi,26.4833,8.4667,86.86,10,2,15.73,DZ,2025-03-09 12:51:38
497,padangsidempuan,1.3667,99.2667,73.98,99,100,2.93,ID,2025-03-09 12:48:55
498,s'arenal,39.5,2.75,58.33,89,75,3.44,ES,2025-03-09 12:51:40
499,cockburn town,21.4612,-71.1419,74.48,66,0,8.34,TC,2025-03-09 12:51:41
500,benghazi,32.1167,20.0667,65.44,67,0,9.55,LY,2025-03-09 12:51:42
501,pacific grove,36.6177,-121.9166,44.38,83,0,3.44,US,2025-03-09 12:51:43
502,nago,26.5881,127.9761,65.17,81,68,13.4,JP,2025-03-09 12:51:44
503,dehdasht,30.7949,50.5646,65.98,52,81,7.34,IR,2025-03-09 12:51:46
504,rawson,-43.3002,-65.1023,57.49,62,0,16.11,AR,2025-03-09 12:51:47
505,yaren,-0.5472,166.916,80.19,78,15,14.56,NR,2025-03-09 12:51:48
506,rio grande,-32.035,-52.0986,70.99,72,100,20.36,BR,2025-03-09 12:51:49
507,weilmunster,50.4333,8.3667,63.16,46,100,3.49,DE,2025-03-09 12:51:50
508,san benito abad,8.929,-75.0271,81.7,74,14,5.03,CO,2025-03-09 12:51:51
509,riohacha,11.5444,-72.9072,78.91,73,20,9.22,CO,2025-03-09 12:50:18
510,antsiranana,-12.2787,49.2917,75.96,94,75,0.0,MG,2025-03-09 12:51:53
511,puerto lempira,15.2667,-83.7667,73.54,88,20,0.0,HN,2025-03-09 12:51:55
512,shahrak,34.1074,64.3052,37.81,100,100,4.05,AF,2025-03-09 12:51:56
513,lihue,21.9789,-159.3672,71.19,94,75,21.85,US,2025-03-09 12:45:55
514,la romana,18.4273,-68.9728,68.36,94,20,0.0,DO,2025-03-09 12:51:58
515,chepo,9.1667,-79.1,79.09,82,81,5.06,PA,2025-03-09 12:51:59
516,ayvacik,39.6011,26.4047,58.71,50,0,5.99,TR,2025-03-09 12:52:00
517,kasama,-10.2129,31.1808,71.89,83,100,4.5,ZM,2025-03-09 12:52:01
518,linxia chengguanzhen,35.6003,103.2064,40.46,64,0,4.5,CN,2025-03-09 12:52:02
519,beyneu,45.3167,55.2,40.69,58,6,5.28,KZ,2025-03-09 12:52:03
520,trelleborg,55.3751,13.1569,56.14,67,52,15.68,SE,2025-03-09 12:52:04
521,east ballina,-28.8667,153.5833,75.38,81,100,18.97,AU,2025-03-09 12:52:06
522,ibotirama,-12.1853,-43.2206,91.38,33,77,3.98,BR,2025-03-09 12:52:03
523,bumba,2.1833,22.4667,94.33,35,54,3.31,CD,2025-03-09 12:52:09
524,mount pearl,47.5166,-52.7813,33.46,91,75,3.44,CA,2025-03-09 12:52:10
525,alesund,62.4723,6.1549,37.33,93,75,10.36,NO,2025-03-09 12:52:11
526,yeed,4.55,43.0333,99.66,23,100,13.24,SO,2025-03-09 12:52:12
527,ciudad lazaro cardenas,17.9583,-102.2,70.95,91,22,6.13,MX,2025-03-09 12:52:13
528,fujin,47.26,132.0322,16.93,88,61,8.05,CN,2025-03-09 12:52:15
529,gabes,33.8815,10.0982,82.36,24,20,20.71,TN,2025-03-09 12:52:20
530,mejit,10.2753,170.8646,79.84,77,6,26.35,MH,2025-03-09 12:52:21
531,namibe,-15.1961,12.1522,83.57,67,52,11.97,AO,2025-03-09 12:52:22
532,bandarbeyla,9.4942,50.8122,81.48,71,65,11.7,SO,2025-03-09 12:52:23
533,tonk,26.1667,75.7833,81.5,18,63,2.55,IN,2025-03-09 12:52:24
534,kupang,-10.1667,123.5833,77.58,94,40,2.3,ID,2025-03-09 12:52:25
535,santa maria del oro,25.9333,-105.3667,34.5,29,0,4.61,MX,2025-03-09 12:52:26
536,coquimbo,-29.9533,-71.3436,60.53,88,0,3.44,CL,2025-03-09 12:52:15
537,lorengau,-2.0226,147.2712,82.69,77,100,8.55,PG,2025-03-09 12:52:29
538,sadjoavato,-12.6334,49.349,80.58,80,98,6.33,MG,2025-03-09 12:52:30
539,salalah,17.0151,54.0924,82.49,69,0,11.5,OM,2025-03-09 12:52:31
540,bamboo flat,11.7,92.7167,84.29,79,75,4.61,IN,2025-03-09 12:52:32
541,dhidhdhoo,6.8833,73.1,82.8,73,0,9.1,MV,2025-03-09 12:52:33
542,el abiodh sidi cheikh,32.893,0.5484,61.79,35,9,8.95,DZ,2025-03-09 12:52:34
543,mil'kovo,55.6078,37.7956,54.63,32,65,9.31,RU,2025-03-09 12:52:36
544,cadale,2.7603,46.3222,83.01,74,100,16.51,SO,2025-03-09 12:52:38
545,saki,8.6667,3.3833,100.53,24,100,3.44,NG,2025-03-09 12:52:39
546,mumbwa,-14.9783,27.0619,76.17,74,91,3.09,ZM,2025-03-09 12:52:40
547,china,25.7,-99.2333,56.39,47,0,19.91,MX,2025-03-09 12:52:41
548,lecheng,25.1238,113.3254,61.34,90,100,1.9,CN,2025-03-09 12:52:42
549,nuevo casas grandes,30.4167,-107.9167,34.86,64,0,1.66,MX,2025-03-09 12:52:43
550,banjar,-8.19,114.9675,78.3,90,100,5.06,ID,2025-03-09 12:52:44
551,puerto deseado,-47.7503,-65.8938,58.24,44,99,22.59,AR,2025-03-09 12:50:18
552,alotau,-10.3069,150.4462,78.78,91,52,4.14,PG,2025-03-09 12:52:47
553,devonport,-41.1667,146.35,64.53,93,100,5.21,AU,2025-03-09 12:52:48
554,semenov,56.7875,44.493,38.71,65,6,12.71,RU,2025-03-09 12:52:49
555,vila velha,-20.3297,-40.2925,84.15,61,40,6.91,BR,2025-03-09 12:52:49
556,kapit,2.0167,112.9333,74.23,99,100,6.33,MY,2025-03-09 12:52:52
557,chubbuck,42.9208,-112.4661,30.87,76,0,11.99,US,2025-03-09 12:52:54
558,xianyang,34.3378,108.7026,54.64,58,0,6.71,CN,2025-03-09 12:52:55
559,al qusayr,34.5091,36.5798,64.94,48,31,13.29,SY,2025-03-09 12:52:57
560,nishinoomote,30.7333,131.0,56.79,54,0,15.68,JP,2025-03-09 12:52:58
561,avra valley,32.4379,-111.3154,47.08,59,0,2.8,US,2025-03-09 12:52:59
562,nogliki,51.8333,143.1667,9.39,83,7,10.85,RU,2025-03-09 12:53:00
563,shindand,33.3029,62.1474,64.11,51,85,9.24,AF,2025-03-09 12:53:01
564,ormara,25.2088,64.6357,77.68,66,100,11.83,PK,2025-03-09 12:53:02
565,keflavik,64.0049,-22.5624,41.43,65,0,9.22,IS,2025-03-09 12:53:03
566,kailua-kona,19.6406,-155.9956,71.56,75,0,1.01,US,2025-03-09 12:53:04
567,malango,-2.9627,119.9001,67.21,98,100,1.63,ID,2025-03-09 12:53:05
568,plettenberg bay,-34.0527,23.3716,69.24,87,100,4.23,ZA,2025-03-09 12:53:06
569,verkhnevilyuysk,63.4453,120.3167,-30.21,100,92,3.22,RU,2025-03-09 12:53:08
570,borovskoy,53.8,64.15,11.48,95,98,7.36,KZ,2025-03-09 12:53:09
571,nouadhibou,20.931,-17.0347,64.33,86,0,14.36,MR,2025-03-09 12:50:34
572,nefta,33.8731,7.8777,82.65,17,0,18.34,TN,2025-03-09 12:53:12
573,aykhal,66.0,111.5,-24.34,100,54,2.62,RU,2025-03-09 12:53:13
574,mirny,62.5353,113.9611,-30.14,100,76,2.08,RU,2025-03-09 12:53:14
575,noumea,-22.2763,166.4572,73.24,72,19,10.02,NC,2025-03-09 12:53:15
576,huanggang,23.677,116.9996,59.85,76,24,7.27,CN,2025-03-09 12:53:16
577,fort bragg,35.139,-79.006,46.9,57,100,3.44,US,2025-03-09 12:53:18
578,yarmouth,41.7057,-70.2286,34.02,59,0,18.01,US,2025-03-09 12:53:19
579,barra da estiva,-13.6261,-41.3269,76.39,48,4,8.25,BR,2025-03-09 12:53:20
580,el charco,2.4769,-78.1105,75.22,93,100,4.09,CO,2025-03-09 12:53:21
581,long beach,33.767,-118.1892,51.44,77,0,4.61,US,2025-03-09 12:53:22
582,ulanhot,46.0833,122.0833,47.3,35,52,21.79,CN,2025-03-09 12:53:23
583,kenai,60.5544,-151.2583,30.29,92,100,0.0,US,2025-03-09 12:53:24
584,quatre cocos,-20.2078,57.7625,85.08,73,13,12.39,MU,2025-03-09 12:53:25
585,gamba,-2.65,10.0,82.78,78,100,7.29,GA,2025-03-09 12:53:26
586,ewo,-0.8725,14.8206,94.48,40,97,2.53,CG,2025-03-09 12:53:27
587,sault ste. marie,46.5168,-84.3333,25.09,80,75,5.75,CA,2025-03-09 12:52:13
588,newman,37.3138,-121.0208,40.05,89,2,1.45,US,2025-03-09 12:53:30
589,vodnyy,63.5046,53.4095,20.26,92,100,10.09,RU,2025-03-09 12:53:31
590,kijang,35.2442,129.2139,46.13,51,49,5.26,KR,2025-03-09 12:53:32
591,dauphin,51.1494,-100.0502,33.94,80,100,11.5,CA,2025-03-09 12:53:34
592,kiunga,-6.1219,141.2906,74.7,99,100,2.68,PG,2025-03-09 12:53:35
593,port blair,11.6667,92.75,84.24,79,75,4.61,IN,2025-03-09 12:53:36
594,taro,-8.3862,115.28,68.29,99,100,2.51,ID,2025-03-09 12:53:38
595,alvarado,18.7667,-95.7667,74.91,83,7,4.14,MX,2025-03-09 12:53:39
596,lambarene,-0.7001,10.2406,91.67,55,100,5.17,GA,2025-03-09 12:53:40
